[
    {
      "id": "s1",
      "name": "Bagh-e-Jinnah Relief Center",
      "address": "Block A, Bagh-e-Jinnah, Karachi",
      "city": "Karachi",
      "latitude": 24.8607,
      "longitude": 67.0011,
      "capacity": 200,
      "contact": "+92-300-1111111",
      "services": "food,medical,blankets",
      "notes": "Has generator backup"
    },
    {
      "id": "s2",
      "name": "NED University Temporary Shelter",
      "address": "University Road, Karachi",
      "city": "Karachi",
      "latitude": 24.8590,
      "longitude": 67.0150,
      "capacity": 350,
      "contact": "+92-300-2222222",
      "services": "medical,water",
      "notes": ""
    },
    {
      "id": "s3",
      "name": "Clifton Relief Point",
      "address": "Clifton, Karachi",
      "city": "Karachi",
      "latitude": 24.8076,
      "longitude": 66.9976,
      "capacity": 150,
      "contact": "+92-300-3333333",
      "services": "food,water",
      "notes": "Near main road"
    },
    {
      "id": "s4",
      "name": "Islamabad Central Relief Camp",
      "address": "Sector G-7, Islamabad",
      "city": "Islamabad",
      "latitude": 33.6844,
      "longitude": 73.0479,
      "capacity": 300,
      "contact": "+92-300-4444444",
      "services": "food,medical,water,blankets",
      "notes": "Government-operated facility"
    },
    {
      "id": "s5",
      "name": "Lahore City Shelter",
      "address": "Main Boulevard, Gulberg, Lahore",
      "city": "Lahore",
      "latitude": 31.5204,
      "longitude": 74.3587,
      "capacity": 400,
      "contact": "+92-300-5555555",
      "services": "food,medical,water,sanitation",
      "notes": "24/7 medical staff available"
    },
    {
      "id": "s6",
      "name": "Peshawar Emergency Shelter",
      "address": "University Town, Peshawar",
      "city": "Peshawar",
      "latitude": 33.9931,
      "longitude": 71.5030,
      "capacity": 250,
      "contact": "+92-300-6666666",
      "services": "food,water,blankets",
      "notes": "Secure compound with perimeter fencing"
    },
    {
      "id": "s7",
      "name": "Quetta Relief Center",
      "address": "Jinnah Road, Quetta",
      "city": "Quetta",
      "latitude": 30.1798,
      "longitude": 66.9750,
      "capacity": 180,
      "contact": "+92-300-7777777",
      "services": "food,medical,water",
      "notes": "Heated facility for winter months"
    },
    {
      "id": "s8",
      "name": "Multan City Shelter",
      "address": "Bosan Road, Multan",
      "city": "Multan",
      "latitude": 30.1575,
      "longitude": 71.5249,
      "capacity": 220,
      "contact": "+92-300-8888888",
      "services": "food,water,blankets",
      "notes": "Near main hospital"
    },
    {
      "id": "s9",
      "name": "Faisalabad Relief Camp",
      "address": "Jhang Road, Faisalabad",
      "city": "Faisalabad",
      "latitude": 31.4504,
      "longitude": 73.1350,
      "capacity": 280,
      "contact": "+92-300-9999999",
      "services": "food,medical,water,sanitation",
      "notes": "Large capacity for families"
    },
    {
      "id": "s10",
      "name": "Rawalpindi Emergency Shelter",
      "address": "Satellite Town, Rawalpindi",
      "city": "Rawalpindi",
      "latitude": 33.6007,
      "longitude": 73.0679,
      "capacity": 200,
      "contact": "+92-300-1010101",
      "services": "food,water,blankets,medical",
      "notes": "Co-located with police station for security"
    },
    {
      "id": "s11",
      "name": "Hyderabad Relief Center",
      "address": "Qasimabad, Hyderabad",
      "city": "Hyderabad",
      "latitude": 25.3960,
      "longitude": 68.3578,
      "capacity": 170,
      "contact": "+92-300-1111112",
      "services": "food,water,medical",
      "notes": "Accessible for disabled individuals"
    },
    {
      "id": "s12",
      "name": "Gujranwala Temporary Shelter",
      "address": "GT Road, Gujranwala",
      "city": "Gujranwala",
      "latitude": 32.1877,
      "longitude": 74.1945,
      "capacity": 190,
      "contact": "+92-300-1212121",
      "services": "food,water,blankets",
      "notes": "Community-run facility"
    },
    {
      "id": "s13",
      "name": "Sialkot Relief Center",
      "address": "Cantt Area, Sialkot",
      "city": "Sialkot",
      "latitude": 32.4997,
      "longitude": 74.5352,
      "capacity": 160,
      "contact": "+92-300-1313131",
      "services": "food,medical,water",
      "notes": "Near airport"
    },
    {
      "id": "s14",
      "name": "Sukkur Emergency Shelter",
      "address": "Minara Road, Sukkur",
      "city": "Sukkur",
      "latitude": 27.7132,
      "longitude": 68.8481,
      "capacity": 140,
      "contact": "+92-300-1414141",
      "services": "food,water,blankets",
      "notes": "Riverfront location"
    },
    {
      "id": "s15",
      "name": "Abbottabad Relief Camp",
      "address": "Jinnahabad, Abbottabad",
      "city": "Abbottabad",
      "latitude": 34.1688,
      "longitude": 73.2215,
      "capacity": 120,
      "contact": "+92-300-1515151",
      "services": "food,medical,water,blankets",
      "notes": "Mountain area facility"
    },
    {
      "id": "s16",
      "name": "Bahawalpur City Shelter",
      "address": "Model Town, Bahawalpur",
      "city": "Bahawalpur",
      "latitude": 29.3956,
      "longitude": 71.6832,
      "capacity": 180,
      "contact": "+92-300-1616161",
      "services": "food,water,sanitation",
      "notes": "Desert climate adapted"
    },
    {
      "id": "s17",
      "name": "Mardan Relief Point",
      "address": "Nowshera Road, Mardan",
      "city": "Mardan",
      "latitude": 34.1978,
      "longitude": 72.0445,
      "capacity": 130,
      "contact": "+92-300-1717171",
      "services": "food,medical,water",
      "notes": "Agricultural area support"
    },
    {
      "id": "s18",
      "name": "Mirpur Khas Shelter",
      "address": "Hyderabad Road, Mirpur Khas",
      "city": "Mirpur Khas",
      "latitude": 25.5256,
      "longitude": 69.0159,
      "capacity": 110,
      "contact": "+92-300-1818181",
      "services": "food,water,blankets",
      "notes": "Sindh region facility"
    },
    {
      "id": "s19",
      "name": "Dera Ghazi Khan Relief Center",
      "address": "Fort Road, Dera Ghazi Khan",
      "city": "Dera Ghazi Khan",
      "latitude": 30.0561,
      "longitude": 70.6345,
      "capacity": 150,
      "contact": "+92-300-1919191",
      "services": "food,water,blankets",
      "notes": "Sindh region facility"
    }
  ]